[
  {
    "name": "Nairobi",
    "population": 4397073,
    "mainEconomicActivity": "Finance, Real Estate, Trade, Manufacturing, Tourism",
    "modesOfTransport": ["Matatus", "Buses", "Taxis", "Uber", "Boda Bodas"],
    "type": "City",
    "latitude": -1.2921,
    "longitude": 36.8219
  },
  {
    "name": "Mombasa",
    "population": 1208333,
    "mainEconomicActivity": "Shipping, Tourism, Manufacturing, Fishing, Trade",
    "modesOfTransport": [
      "Matatus",
      "Taxis",
      "Ferries",
      "Boda Bodas",
      "Tuk Tuks"
    ],
    "type": "City",
    "latitude": -4.0435,
    "longitude": 39.6682
  },
  {
    "name": "Kisumu",
    "population": 500000,
    "mainEconomicActivity": "Fishing, Trade, Agriculture, Manufacturing, Tourism",
    "modesOfTransport": ["Matatus", "Boda Bodas", "Taxis", "Ferries"],
    "type": "City",
    "latitude": -0.0917,
    "longitude": 34.7677
  },
  {
    "name": "Nakuru",
    "population": 570674,
    "mainEconomicActivity": "Agriculture, Tourism, Manufacturing, Retail, Services",
    "modesOfTransport": ["Matatus", "Taxis", "Boda Bodas", "Private Cars"],
    "type": "Town",
    "latitude": -0.3031,
    "longitude": 36.08
  },
  {
    "name": "Eldoret",
    "population": 289380,
    "mainEconomicActivity": "Agriculture, Trade, Education, Healthcare, Services",
    "modesOfTransport": ["Matatus", "Taxis", "Boda Bodas", "Private Cars"],
    "type": "Town",
    "latitude": 0.5204,
    "longitude": 35.2699
  },
  {
    "name": "Thika",
    "population": 288000,
    "mainEconomicActivity": "Industry (manufacturing), Agriculture, Trade, Services, Retail",
    "modesOfTransport": ["Matatus", "Taxis", "Boda Bodas", "Private Cars"],
    "type": "Town",
    "latitude": -1.0396,
    "longitude": 37.0797
  },
  {
    "name": "Malindi",
    "population": 207253,
    "mainEconomicActivity": "Tourism, Fishing, Agriculture, Retail, Hospitality",
    "modesOfTransport": ["Matatus", "Taxis", "Boda Bodas", "Rickshaws"],
    "type": "Town",
    "latitude": -3.2175,
    "longitude": 40.119
  },
  {
    "name": "Kitale",
    "population": 175000,
    "mainEconomicActivity": "Agriculture (dairy farming), Trade, Services, Manufacturing, Retail",
    "modesOfTransport": ["Matatus", "Taxis", "Boda Bodas", "Private Cars"],
    "type": "Town",
    "latitude": 1.0151,
    "longitude": 35.0067
  },
  {
    "name": "Garissa",
    "population": 163149,
    "mainEconomicActivity": "Trade, Livestock Farming, Agriculture, Services, Retail",
    "modesOfTransport": ["Matatus", "Taxis", "Boda Bodas", "Camels"],
    "type": "Town",
    "latitude": -0.4523,
    "longitude": 39.6461
  },
  {
    "name": "Kakamega",
    "population": 139171,
    "mainEconomicActivity": "Agriculture, Trade, Education, Services, Retail",
    "modesOfTransport": ["Matatus", "Taxis", "Boda Bodas", "Private Cars"],
    "type": "Town",
    "latitude": 0.2829,
    "longitude": 34.7523
  },
  {
    "name": "Nyeri",
    "population": 125357,
    "mainEconomicActivity": "Agriculture (coffee farming), Trade, Services, Education, Retail",
    "modesOfTransport": ["Matatus", "Taxis", "Boda Bodas", "Private Cars"],
    "type": "Town",
    "latitude": -0.4249,
    "longitude": 36.9513
  },
  {
    "name": "Meru",
    "population": 240900,
    "mainEconomicActivity": "Agriculture (tea farming), Trade, Tourism, Services, Retail",
    "modesOfTransport": ["Matatus", "Taxis", "Boda Bodas", "Private Cars"],
    "type": "Town",
    "latitude": 0.0464,
    "longitude": 37.6555
  }
]
